Unnamed: 0,trans_date_trans_time,cc_num,trannsaction_type,amt,city,lat,long,trans_num,merch_lat,merch_long,is_fraud
332530,07-06-2019 13:59,4585130000000.0,entertainment,17.54,Utica,39.7417,-93.6289,e025843e1223d18d2bdb952a2155c262,39.660573,-93.726992,0
669880,12-10-2019 21:44,4266200000000000.0,misc_net,837.95,Nelson,40.201,-98.0684,18bb94b17665205a4fd976f57ef95d3b,39.990728,-98.889052,1
197066,11-04-2019 21:11,584674000000.0,food_dining,1.9,Coleharbor,47.5196,-101.2332,c7234bc476fb7a40b2be3e31a32ff238,48.450408,-101.404848,0
979771,02-02-2020 08:06,6534630000000000.0,grocery_pos,322.33,Hinesburg,44.3346,-73.098,ebabd39f168278e7f7771829d82c9f10,44.396538,-74.001606,1
900672,27-12-2019 02:41,3521420000000000.0,shopping_net,981.17,Indianapolis,39.849,-86.272,ab9d0a09f7bacccee588a6289c0a9315,39.669227,-86.450474,1
97038,26-02-2019 14:43,3583640000000000.0,travel,9.35,Philadelphia,40.0369,-75.0664,33d9ac1125462e66353f87365513e73a,40.138941,-75.465585,0
911258,29-12-2019 08:20,30442400000000.0,misc_net,7.94,Jermyn,41.5744,-75.5881,a57a4cd2c09dd5f1a6b9cbe8716ffbf1,40.577789,-75.919329,0
603725,13-09-2019 23:52,213137000000000.0,grocery_pos,283.29,Humboldt,34.5189,-112.2523,93ac93d52f5de1f1ec2f14a3338f692f,35.030426,-112.232113,1
522339,12-08-2019 23:38,4294040000000000.0,home,288.35,New Ellenton,33.413,-81.69,b87fbfdb104eb6571e6fa8d80abb9f86,34.228801,-80.886839,1
112750,04-03-2019 21:44,213153000000000.0,shopping_net,8.89,Tomahawk,45.4963,-89.7273,368f9708c18ca94376a4f108482bb9ae,45.896556,-90.575811,0
274526,15-05-2019 23:59,6524380000000000.0,shopping_net,1131.15,Phil Campbell,34.347,-87.7154,cb57cdfaec1298872a949739f0c31212,34.207454,-87.536328,1
74292,12-02-2019 23:58,3520550000000000.0,misc_pos,8.24,Hovland,47.8342,-90.0476,9930ced846a4f3082235bf75f89e31cd,47.120308,-89.314686,1
70905,11-02-2019 15:29,4191110000000000.0,home,27.01,Amanda,39.6251,-82.7552,9710cf3188994aa0000453fdc191c99b,39.12137,-82.422122,0
185928,06-04-2019 23:24,4681700000000.0,shopping_pos,744.64,Murfreesboro,35.8596,-86.421,3645dcfa432cfa5eedef69ebc31490a1,35.421759,-86.349458,1
500352,05-08-2019 12:29,3517810000000000.0,food_dining,58.23,Union,37.5802,-80.5248,62f05f95ab4d4314b384fa187fc20434,37.941828,-79.889227,0
839265,13-12-2019 11:47,4969860000000000.0,grocery_pos,114.48,Metairie,29.9975,-90.2146,5f1652402de4d277e4afe9eabccdb7ae,30.504226,-89.440765,0
661094,08-10-2019 11:04,581293000000.0,grocery_pos,108.41,Lahoma,36.385,-98.0727,456182aff2fbcd4b3ce02368dc15f27a,36.156076,-97.264882,0
534327,17-08-2019 23:16,502013000000.0,shopping_pos,722.05,Garrattsville,42.6315,-75.1866,cad406d5127eb3078ae95406711595f9,41.871891,-75.290563,1
998257,13-02-2020 04:11,4755700000000.0,grocery_pos,69.94,Sachse,32.9643,-96.6012,510f5b667b3d4763676bb442bb8c7350,33.236402,-97.40467,0
1016339,23-02-2020 16:01,4452370000000000.0,shopping_pos,6.63,Blooming Grove,32.0758,-96.701,16bf0fee6be6a2514c2ccb1aca074bdc,31.259383,-96.553759,0
676715,15-10-2019 04:24,30199600000000.0,grocery_pos,197.43,Leonard,33.4044,-96.2238,4cdccaea0ac1fbdacf6a3dc83b1091b5,33.813103,-95.508357,0
250303,05-05-2019 09:46,4585130000000.0,gas_transport,51.06,Utica,39.7417,-93.6289,33d27c3a25a6e31b3d960a5ee8455872,40.577339,-92.995864,0
907295,28-12-2019 16:00,38947700000000.0,entertainment,54.05,Creola,39.3543,-82.503,be7b61c700709d5de753d948a05c5e82,38.810583,-82.432537,0
567250,29-08-2019 16:38,3577580000000000.0,travel,8.26,Diamond,41.0935,-81.0425,31b1c1748c00318fe0a75604391f328a,41.042667,-81.740149,0
757160,19-11-2019 22:03,4457490000000.0,misc_pos,8.75,Nanuet,41.0977,-74.0109,b1651134edffe408942343ce0b23c268,41.182097,-74.301265,1
332704,07-06-2019 15:19,3524570000000000.0,kids_pets,88.81,Vero Beach,27.633,-80.4031,5c16b133d90d7211e744f4eb475cc01b,26.976976,-80.555855,0
1015183,23-02-2020 03:46,4.99235e+18,shopping_net,10.61,Mc Nabb,41.173,-89.2187,24ee9f9e83d07c700e0af181fc249c3a,41.597662,-89.156817,0
744910,14-11-2019 23:43,5127410000000000.0,shopping_net,999.76,Washington,38.9367,-76.994,b0613ce054815d8507ff430356636f15,38.925431,-76.895631,1
471463,27-07-2019 00:24,3595110000000000.0,gas_transport,19.04,Cardwell,36.0434,-90.2907,de1c333b09f91814991150569b9138c5,35.127741,-89.889991,1
842680,14-12-2019 06:26,346244000000000.0,gas_transport,71.17,Thornville,39.8974,-82.4071,051b6bf8f2b9683fd1e2ff445d9cb0e0,39.95343,-82.925989,0
125255,10-03-2019 19:17,4195740000000.0,kids_pets,146.12,Portland,45.5303,-122.7033,e25d48b9ead68b62726a8261ef7b7fad,45.688847,-121.711227,0
679316,16-10-2019 20:21,213142000000000.0,shopping_net,526.2,Florence,32.153,-90.1217,c7cd0c56e25a8c23546da5f0ae086474,31.261968,-90.934214,0
606519,15-09-2019 00:27,4.35579e+18,shopping_net,405.2,Payson,39.8153,-91.2627,78d1b036f74d251e9530dd65bd8fed7e,39.637665,-91.990929,0
834168,12-12-2019 00:17,4450830000000000.0,shopping_pos,785.52,Clayton,34.5906,-95.38,be6293c210f5c370027f8f529ecd077f,35.220564,-95.319253,1
837709,12-12-2019 23:02,4446370000000000.0,grocery_pos,315.51,Atlantic,37.9073,-75.5089,61a6b1e25d99700b4969dc961086aef1,37.89767,-75.698974,1
774285,27-11-2019 18:16,4587580000000000.0,misc_pos,9.61,Nobleboro,44.0943,-69.4828,ce175d53b2db44e8bf3bda097b3e398c,43.842384,-70.366691,0
763063,23-11-2019 05:30,3528230000000000.0,misc_pos,177.46,Heislerville,39.224,-74.9942,03e7498737e446fcc0520d6ea699eff8,39.422223,-75.34254,0
626487,23-09-2019 07:58,2610530000000000.0,shopping_pos,949.27,Old Hickory,36.2416,-86.6117,4d8802e1c8475bf43b11c2c387ed1d2a,36.3888,-87.577849,1
577754,01-09-2019 22:23,676308000000.0,travel,9.71,Washoe Valley,39.2669,-119.8174,dc97b6465bdd632cc7b1af610a6ff8b1,39.83076,-119.613944,1
606205,14-09-2019 22:17,3524490000000000.0,grocery_pos,311.52,Glendale,34.1556,-118.2322,439d2b754c624c6315247b1e8c6914f6,34.235686,-118.773812,1
294648,25-05-2019 02:12,4277230000000000.0,shopping_net,2.02,Rhame,46.1664,-103.7079,0df2822ddd97d805465c05c318928c89,46.457805,-103.66039,0
244650,02-05-2019 22:16,501899000000.0,grocery_pos,298.28,Gadsden,33.9845,-85.9077,2b370888335660ed8bd1cb1d063e5fb6,34.520154,-86.608127,1
607856,15-09-2019 12:55,6595970000000000.0,food_dining,15.67,Stirling,40.6774,-74.4968,4be9d4d6332c46eec0b1b7229f01ef35,41.153581,-74.988115,0
236521,28-04-2019 23:02,345226000000000.0,home,266.59,Ashland,38.4722,-82.6461,93fe8806673a7b771ce4946f84877790,38.143909,-81.654719,1
21668,13-01-2019 23:45,3536920000000000.0,misc_net,790.35,San Jose,37.3304,-121.7913,7d7d61dc3b301c78ca3c0cf73e8ed72e,37.033841,-121.371988,1
57328,03-02-2019 22:29,4451950000000000.0,misc_net,648.99,Nazareth,34.5444,-102.1069,e7a21b26be08dc542c18ff394c621d2d,34.80193,-102.200268,1
14486,09-01-2019 01:26,6526960000000000.0,grocery_pos,337.06,Naples,26.3304,-81.5871,8276e627c4a4b500a02ad2e7bd5ebf7c,26.137097,-82.463519,1
1022125,27-02-2020 01:56,6011390000000000.0,grocery_pos,286.4,Los Angeles,34.0443,-118.2509,b5ad4ab966b17e6f90ae3f7c1d05a232,33.388626,-118.131576,1
80223,17-02-2019 10:33,4.7614e+18,grocery_pos,106.68,Viola,36.3924,-91.9932,35f5706ab02d6d969e9b43c70c9f3daf,36.82526,-92.828066,0
341194,10-06-2019 02:17,345934000000000.0,grocery_pos,333.78,Whaleyville,38.4121,-75.2811,8d1328ded29314398f5db6ce42155d92,37.802636,-74.296547,1
701741,26-10-2019 22:11,4.2554e+18,shopping_net,1124.23,Dallas,32.69,-96.9177,5217eff32c5feaf1f0b52c103de0d1ec,32.751159,-97.237334,1
26350,15-01-2019 22:50,4979420000000000.0,misc_net,851.71,Westerville,41.4193,-99.3844,22b7c01ff32367d1c58037196e9b6afb,40.461654,-98.987825,1
616126,19-09-2019 01:54,4.89707e+18,misc_net,820.28,Port Richey,28.3011,-82.6927,39554efd2f18f05dc48dca4e3b0a1668,27.402186,-82.496122,1
779375,30-11-2019 05:25,4147610000000000.0,misc_pos,37.17,Comfrey,44.1111,-94.9134,b61138910d547eaebded4c77fe018285,44.300044,-94.45208,0
228856,25-04-2019 22:32,378279000000000.0,grocery_pos,289.51,Eugene,44.0385,-123.0614,aeff67951c2b385393dd170f72d1a8f3,44.757364,-123.250058,1
21812,14-01-2019 01:31,4377340000000000.0,grocery_pos,325.86,Heiskell,36.115,-84.0438,13074f19598d3f993dd1034677a782dc,35.825271,-84.886528,1
110001,04-03-2019 00:04,2657850000000000.0,grocery_pos,299.0,Detroit,42.3749,-83.1087,7055aa1d67aa7c64089bff52f45db6f0,43.146472,-83.226018,1
429765,11-07-2019 23:05,4.79894e+18,shopping_net,929.39,Bay City,43.6088,-83.953,9a986de43fd877f225bb0ff9a3ea2ad2,42.899859,-84.392961,1
715324,02-11-2019 00:55,6011380000000000.0,grocery_pos,308.87,Luzerne,44.6001,-84.2931,0a1007bfeb92b04fbb462710cd5aad16,44.193544,-84.200617,1
945434,12-01-2020 23:50,6554250000000000.0,shopping_pos,1009.65,Laguna Hills,33.615,-117.7114,896d1a29fb238d85b538415ace61aa42,33.210236,-117.473344,1
87315,20-02-2019 23:35,6538890000000000.0,food_dining,131.2,Walnut Ridge,36.0244,-90.9288,d8866515762409dfe93aab20b6adba4c,36.029868,-90.346477,0
811759,07-12-2019 10:48,6534630000000000.0,gas_transport,57.14,Hinesburg,44.3346,-73.098,15280ce03a1563230bed561d278c6ce2,45.057912,-73.141481,0
622860,22-09-2019 04:06,4629450000000000.0,gas_transport,60.41,Hahira,30.9416,-83.3574,b04d8d86e684ddf7dd85b629aec66063,29.99219,-83.549862,0
1002809,15-02-2020 23:26,584674000000.0,health_fitness,30.73,Coleharbor,47.5196,-101.2332,525abc5b90e886e279c12d0a13259916,48.367246,-101.730277,0
988918,07-02-2020 22:56,3598300000000000.0,health_fitness,22.9,Wichita,37.6395,-97.1714,fb54688ba3702dd85b10ed6e212e5371,37.809137,-96.388711,1
115138,06-03-2019 08:25,2227670000000000.0,shopping_pos,866.88,Clearwater,27.9004,-82.7152,d7f13c484d6010e95f596aeaae8e1051,27.139966,-82.866194,1
1037449,06-03-2020 08:54,180014000000000.0,misc_net,262.55,Brantley,31.571,-86.2743,022b9a83234d191f2aa4f8ee5c217488,31.278206,-85.706016,0
75372,13-02-2019 22:28,2288750000000000.0,shopping_net,1156.15,Albuquerque,35.0561,-106.5506,c159c314f17eeb5f67202348de6bcbb0,34.625719,-106.546502,1
427479,10-07-2019 23:24,377234000000000.0,shopping_net,1159.39,Shenandoah Junction,39.3716,-77.8229,db8abc8fbded0285e358e39a426e8998,39.926134,-76.93763,1
198390,12-04-2019 15:43,3504180000000000.0,food_dining,137.06,Lima,40.7641,-84.0973,c6f3acfbda0a5a4e5dbd8f80a14e9b6b,39.840859,-83.70611,0
974144,29-01-2020 21:43,4613310000000.0,personal_care,78.39,Collettsville,35.9946,-81.7266,64f345e51b593e1a81616ead17d1ccca,35.153526,-81.528384,0
931525,05-01-2020 07:08,3502380000000000.0,gas_transport,43.75,New Waverly,30.5354,-95.4532,19453b1d305701636d42e8fe21b371d2,31.483435,-94.611617,0
875737,21-12-2019 14:43,4488940000000000.0,shopping_pos,4.5,Umatilla,28.9254,-81.6801,d94d09c3036af5799647cc7e27f5956c,28.36156,-81.690614,0
757494,20-11-2019 03:40,4.89042e+18,gas_transport,55.31,Sacramento,38.5662,-121.3286,58e8d5d95257e5b7d1c8c4b046151af4,37.806261,-122.215943,0
826563,09-12-2019 19:44,3560800000000000.0,shopping_net,5.99,Shields,46.1838,-101.2589,256a11a3531a5613f5acb893eca64fbf,46.546498,-101.659471,0
1030710,03-03-2020 00:11,4229730000000000.0,misc_net,29.37,Elizabethtown,37.6848,-85.8784,e2925a27a5e510afa1bdaeea744f8396,38.231139,-86.377516,0
193495,09-04-2019 19:40,3540080000000000.0,misc_pos,32.32,Lonsdale,44.4477,-93.4252,c074b261acf29e5833136b89f5a87a00,44.20331,-94.374927,0
54117,02-02-2019 02:20,378263000000000.0,gas_transport,14.1,Madisonville,30.4287,-90.1773,59955e9546efe489cd24cf5bb3adb206,30.5467,-89.191174,1
157531,24-03-2019 23:59,3533740000000000.0,health_fitness,99.17,Johns Island,32.8357,-79.8217,1910e6725fd0bd542aa67fc0ada91651,33.28204,-79.145663,0
430879,12-07-2019 12:50,344710000000000.0,health_fitness,22.45,Sebring,27.4703,-81.4872,5a2273e2c78f08df3941ec9c819dcec3,27.986082,-80.990408,0
276770,17-05-2019 06:16,3518760000000000.0,grocery_pos,304.52,Moab,38.5677,-109.5271,3fe10f115f13f8a7aef6c4a86f4f30e9,39.402262,-109.386308,1
952947,17-01-2020 22:15,4807550000000.0,grocery_pos,322.87,Rosewood,40.2158,-83.9579,b310ab6f082265f5001aee733a2026c6,39.905006,-83.218041,1
545703,21-08-2019 20:22,4634960000000000.0,entertainment,55.72,Hooper,41.6414,-96.5232,56bd04501f694daa54b220fb553e0e4c,40.904266,-96.618577,0
57434,03-02-2019 23:26,378263000000000.0,shopping_net,897.11,Madisonville,30.4287,-90.1773,291ce9f3a5af71a89facbea4dcd8156f,31.249502,-89.771932,1
107850,03-03-2019 10:02,3597340000000000.0,shopping_pos,3.64,Glen Rock,39.7813,-76.7477,470aa03679df95918bee8881d51defc8,38.815439,-77.009844,0
920642,30-12-2019 19:39,676292000000.0,shopping_net,877.23,Skytop,41.2336,-75.2389,64791ee36561c175c054c6031b142427,40.582663,-74.292148,1
162031,26-03-2019 23:21,371683000000000.0,shopping_net,1034.07,Iselin,40.5716,-74.3167,364916c8f7b79d7b8f93f248d765b52d,40.686187,-73.858278,1
802389,04-12-2019 23:07,4129770000000000.0,food_dining,13.86,Halstad,47.3551,-96.798,77b5aaea3632c51551ccabf6f606df81,46.475003,-96.968081,0
441509,15-07-2019 15:12,4587580000000000.0,travel,9.75,Nobleboro,44.0943,-69.4828,a4e0b3d0521a0589ec190e7e751c4928,43.29084,-68.618854,0
261704,10-05-2019 15:47,2713910000000000.0,personal_care,12.97,Delhi,32.3929,-91.4714,89d7d6fc19faac3aa93cc79894daa3e9,32.777578,-90.746424,0
595158,09-09-2019 12:02,3596360000000000.0,health_fitness,23.6,Morrisdale,41.0001,-78.2357,1da51dd59f82fabbe92734a26313bcaf,40.205234,-78.326247,0
345678,11-06-2019 14:16,2269770000000000.0,food_dining,52.19,Mount Morris,42.6835,-77.8664,b3918e7e6383665f9f4a04e30c6cc5e4,42.753166,-78.698189,0
542059,19-08-2019 23:32,340951000000000.0,home,25.93,Orangeburg,41.0442,-73.9609,d9116072e259b3ec47a65bfa3fa19423,40.283307,-73.378511,0
337233,09-06-2019 01:52,213200000000000.0,grocery_pos,161.84,Varnell,34.9298,-84.9885,a69be96587420964eadaaf4ff7f61cb3,35.365693,-85.336142,0
471442,27-07-2019 00:15,4500000000000.0,misc_pos,1.41,Tyaskin,38.2833,-75.8465,7cc0c654b6066eb9b11d648f1aa91e10,38.424401,-76.264782,0
350223,13-06-2019 17:09,4328930000000000.0,shopping_pos,34.53,Greendale,42.9373,-87.9943,e77d4bbb56094bca812ddb72898740d2,43.45518,-87.445878,0
757239,19-11-2019 23:06,4365380000000000.0,misc_net,932.84,Orr,48.1439,-92.8561,c502eceb610a217cf65f470302033753,47.639712,-93.03469,1
131043,13-03-2019 10:34,4383520000000.0,grocery_pos,326.97,Indianapolis,39.9347,-86.1633,8bde6870e2c34ff3d9ef1f98b8f89640,39.341233,-86.593583,1
769883,25-11-2019 13:26,676195000000.0,shopping_pos,4.9,Altair,29.6047,-96.5249,85b2ff267900ce1814a8dcd553cec9bd,29.661258,-96.796165,0
873114,21-12-2019 01:07,180067000000000.0,shopping_pos,812.02,Joliet,41.5378,-88.0572,602067090b197bfbbc2f3e3436e11b3f,42.026569,-89.055736,1
929758,04-01-2020 12:37,2512310000000000.0,shopping_pos,966.13,Warren,42.5164,-82.9832,a968bb666cd0fa20b56dfcebbd9adf01,41.608872,-83.058835,1
8229,06-01-2019 08:26,3500970000000000.0,gas_transport,51.85,Tekoa,47.2271,-117.0819,571d25b90d2fbf087166d76a63e8f451,47.959967,-117.117553,0
71698,11-02-2019 22:04,6011110000000000.0,home,259.17,Wilmington,34.2651,-77.867,d0fe9cd05482ab29b8703d7794c5b90b,34.200645,-78.746466,1
732600,09-11-2019 14:38,30199600000000.0,shopping_net,10.23,Leonard,33.4044,-96.2238,5e2dc9ccd6dd79c6f98aaf9ee0214015,32.457577,-96.091614,0
880923,22-12-2019 12:30,340951000000000.0,kids_pets,67.49,Orangeburg,41.0442,-73.9609,524a06832231a62f3ac4aa7b6ecfbe84,40.869642,-73.02574,0
721316,04-11-2019 01:27,60490596305.0,grocery_pos,323.64,Haynes,34.8838,-90.7666,dc8ce444bc37a6fa0b50185d9accb6d9,35.58264,-91.431631,1
421805,08-07-2019 14:39,501831000000.0,entertainment,27.4,West Decatur,40.9493,-78.3129,7075df15932a03b63aad3ee496dad107,40.060913,-78.527605,0
1019615,24-02-2020 23:59,3514870000000000.0,shopping_net,989.44,High Rolls Mountain Park,32.9396,-105.8189,2a447483bec42c969126cc6d3a9b335d,33.722184,-105.551096,1
859377,17-12-2019 00:01,5388660000000000.0,shopping_pos,2.62,Seneca,43.2064,-90.9405,0407ed334d812ef7d7db42538869e610,42.607968,-90.083975,0
783741,30-11-2019 23:48,3562260000000000.0,kids_pets,5.66,Saint Francis,37.6047,-85.4251,c423dc7e3ae3cd2d17e8f1192a1aed29,36.874936,-85.459879,1
686010,19-10-2019 23:47,3529600000000000.0,health_fitness,21.72,Jordanville,42.8948,-74.8209,4b7d9a3c8f32c67e50a27646fcb35d26,43.822389,-73.856995,1
919941,30-12-2019 17:17,4841310000000000.0,health_fitness,75.58,West Hartford,43.7185,-72.4439,4f30ebbde02830a67880843919102c1d,42.835786,-73.337185,0
297331,25-05-2019 22:02,4155020000000000.0,food_dining,1.79,Mountain Park,34.7032,-98.9591,0407c3378a5b42e3bef3f297a8961f48,34.040674,-99.326079,0
99144,27-02-2019 22:21,6011310000000000.0,misc_net,749.98,Huntsville,34.6205,-86.551,ef24c25feb01e155963aaa7983fc3dd7,35.616373,-86.288604,1
340173,09-06-2019 20:28,577589000000.0,misc_pos,133.24,Spring Church,40.6153,-79.4545,55cc5264844b761223969f1374929c3b,40.886845,-80.014175,0
709422,29-10-2019 18:44,4.85549e+18,food_dining,52.94,Graniteville,44.1554,-72.4847,3cd9f5f92224ab613b4c8fd4aff4e3f7,45.009536,-73.300433,0
646380,02-10-2019 04:49,6526780000000000.0,grocery_pos,325.72,South Richmond Hill,40.6868,-73.823,d28061857144e50cbfbcb813cfdab85a,40.487332,-74.215409,1
715430,02-11-2019 02:05,6011380000000000.0,grocery_pos,328.85,Luzerne,44.6001,-84.2931,7ca984eee7e8f5eb091ea3dd943b65d1,44.652208,-84.828899,1
682759,18-10-2019 17:47,30082000000000.0,misc_net,848.19,Naples,26.1184,-81.7361,de1e8f009d099c6d9daae4a6af5084af,26.307604,-82.50945,1
106996,03-03-2019 01:15,3562680000000000.0,grocery_net,10.12,Queenstown,39.0026,-76.1424,3907cb1a7b57ab328fa1886e331dc5c6,38.087913,-76.474637,1
774851,28-11-2019 01:18,4.73685e+18,gas_transport,19.65,Altona,44.8816,-73.6408,25400d42c939fdc44288fada97fcfd2e,45.525252,-74.630866,1
940978,11-01-2020 01:40,3529790000000000.0,grocery_pos,265.09,Kenner,30.0252,-90.2522,4d4aceda4795962f4a55259de83bc8e9,30.144023,-91.166198,1
417705,07-07-2019 13:56,4961000000000000.0,travel,8.78,Cressona,40.6284,-76.195,7cc64318671c6e2a86e4dd865bfe3759,40.440528,-75.826178,0
26300,15-01-2019 22:22,2383460000000000.0,grocery_pos,308.33,Parsonsfield,43.745,-70.9092,359805be9ce50a029fe8be6434f98cbc,42.768322,-71.629723,1
959826,20-01-2020 23:23,6538890000000000.0,personal_care,24.08,Walnut Ridge,36.0244,-90.9288,d30ce66ed6b7c764368a1c0b8ed6b04f,36.356141,-90.730709,1
890179,23-12-2019 22:45,4.79263e+18,home,274.6,De Soto,38.9462,-94.9714,c702eeda501b437020034abfd48bee8c,38.706488,-95.901762,1
286266,20-05-2019 18:49,4306590000000000.0,travel,6.52,Veedersburg,40.1186,-87.2602,54541702f4ed06dd20a520c0d70979aa,40.49468,-87.003623,0
297332,25-05-2019 22:02,180043000000000.0,shopping_net,980.15,Saint Petersburg,27.7898,-82.7243,1a749369119e0ac963c76327580c76c9,27.325637,-82.945002,1
432136,12-07-2019 23:08,4.48117e+18,misc_net,911.24,Morven,34.8511,-80.0025,89aa8e2759917f62db949af682b88f39,34.794814,-80.447006,1
124050,10-03-2019 12:03,4427810000000.0,kids_pets,7.47,Ruidoso,33.3305,-105.6933,8045dd26df129a328cbc114ec549037e,32.653294,-106.347264,0
31766,20-01-2019 01:54,340951000000000.0,entertainment,493.5,Orangeburg,41.0442,-73.9609,0bf2a603ea431b7f2b0f43221e661a3b,41.314072,-73.407514,1
301695,27-05-2019 00:54,2242540000000000.0,grocery_pos,275.35,Westport,38.4921,-85.4524,4b21a9ef6d7e2d9483ad0a94e62f4f40,39.151888,-85.383812,1
575522,01-09-2019 11:34,6011540000000000.0,grocery_pos,143.15,Basye,38.8089,-78.7776,011efec47f9dda054a623b576600524f,39.676676,-78.327195,0
797599,03-12-2019 13:07,180048000000000.0,entertainment,269.91,Plainfield,40.6152,-74.415,6cacb35eaa151d7c60677df738393d7d,40.022489,-73.830976,0
984878,04-02-2020 22:53,370349000000000.0,shopping_net,893.46,Tickfaw,30.5668,-90.482,878229b5aba444477aede2b3ff314ee6,30.265993,-90.899089,1
462486,22-07-2019 22:19,2283740000000000.0,shopping_net,945.96,Alpharetta,34.077,-84.3033,8b3b1f434389171c45bfe663eac0151b,34.840365,-84.606991,1
74054,12-02-2019 22:10,4204240000000000.0,shopping_net,968.46,West Frankfort,37.8979,-88.9307,9607f8323085de79745f855047281436,37.605676,-89.048886,1
102556,01-03-2019 02:42,60416207185.0,gas_transport,11.74,Fort Washakie,43.0048,-108.8964,ba2ebc05cdb94af457dc23f588413d25,42.656763,-109.86824,1
51331,31-01-2019 00:44,3543590000000000.0,shopping_net,921.24,Armagh,40.4603,-79.0097,c8928ba53be26fdd997b26f7130c757e,40.064488,-78.210499,1
237715,29-04-2019 10:00,213194000000000.0,grocery_pos,94.28,Pointe Aux Pins,45.7549,-84.447,ea8e5f46f8d14451df9b7f5b0bf48d8b,45.283206,-83.896902,0
566051,29-08-2019 03:27,3526830000000000.0,grocery_pos,329.01,Falmouth,44.2529,-85.017,aa7f5ae1c230779f1003fc5c2f1c931d,45.170816,-84.496253,1
990947,08-02-2020 23:50,3598300000000000.0,misc_net,839.31,Wichita,37.6395,-97.1714,a9ef7e82611a27ba2dded70df0dc281b,37.547762,-97.746549,1
14299,08-01-2019 23:06,4671730000000000.0,personal_care,95.62,Andrews,40.8618,-85.6067,2247a048bad1b71b80eefe336fb46d8d,40.438321,-85.451216,0
41927,25-01-2019 22:14,4.25711e+18,kids_pets,19.05,Waukau,43.9886,-88.7712,1b79ef2dea493f112ce5e1cfdc9b7958,43.736699,-89.715061,1
1020243,25-02-2020 15:12,4957920000000.0,personal_care,25.58,Kirk,39.6171,-102.4776,19e16ee7a01d229e750359098365e321,39.080346,-103.213452,0
891065,24-12-2019 05:36,676373000000.0,gas_transport,40.6,Esbon,39.7562,-98.4462,53e3a11125eefd246a42a994edc73477,39.086333,-98.992657,0
72124,12-02-2019 02:37,4.71402e+18,grocery_pos,314.25,Chattanooga,35.0271,-85.2356,6ee59ed17579a914351e06d27da56f4c,34.027143,-85.906163,1
1011410,21-02-2020 01:08,4.90663e+18,grocery_pos,261.74,Key West,24.6557,-81.3824,57ba0ba8d174d451ca13efdc4c0e0922,24.112567,-80.664756,1
462784,22-07-2019 23:41,3540080000000000.0,misc_pos,2.84,Lonsdale,44.4477,-93.4252,b3fa484e6765d32d3368300e93536688,45.212281,-93.6503,0
571775,31-08-2019 10:39,4.49791e+18,food_dining,60.27,Pembroke,34.6902,-79.1834,d7064bfc5fe7533261a7220a2203b0ef,34.310692,-79.001729,0
1023403,27-02-2020 23:47,4.22371e+18,misc_net,736.87,Mount Saint Joseph,39.0965,-84.6431,80e440042aa29a7f723a888f7ed59012,39.190969,-83.807789,1
208088,16-04-2019 00:39,6550400000000000.0,grocery_pos,264.87,Port Charlotte,26.9379,-82.2388,0f9893be2b8150981b42e1051c56ff47,27.538188,-81.969473,1
27670,16-01-2019 23:32,6011370000000000.0,shopping_net,1125.31,Mc Veytown,40.5046,-77.7186,b0015839d697350a352dcef5382e6ff8,39.839436,-77.286704,1
21495,13-01-2019 22:01,4.66631e+18,shopping_net,1062.95,Ravenna,41.0233,-98.9041,2182d9659d60dfa68fa1f39baa2fc635,41.942402,-98.005584,1
501269,05-08-2019 17:07,6538890000000000.0,kids_pets,21.14,Walnut Ridge,36.0244,-90.9288,742cb3d8709efb51a066a38ee1d61611,36.129179,-91.255086,0
833830,11-12-2019 22:12,371284000000000.0,home,90.45,Lubbock,33.5466,-101.8871,9f1245afcc3d23696c3bc0ab019f4719,32.896874,-102.824475,0
125944,10-03-2019 23:38,3567880000000000.0,misc_net,861.16,Brownville,44.0577,-76.0196,0838329117455b30b63d931f5b0ce227,44.184308,-76.634747,1
947707,13-01-2020 23:00,6554250000000000.0,shopping_net,1066.01,Laguna Hills,33.615,-117.7114,367d63b0a3a49f679b614fac2ee63715,33.16345,-117.153705,1
200589,13-04-2019 13:57,2720430000000000.0,home,19.64,Bowdoin,44.0575,-69.9656,48c5e8a2864cf0ecca22df2c95dbf43f,44.377986,-70.843815,0
836466,12-12-2019 16:41,4446370000000000.0,entertainment,490.96,Atlantic,37.9073,-75.5089,5567ebb0ba67280af79202bd456b9ac2,37.663546,-74.619151,1
163820,28-03-2019 01:14,4003770000000000.0,gas_transport,20.15,Gregory,35.1791,-91.2594,e7a1da5bb666c7dadcb30de39c656ed3,34.920598,-91.283309,1
124398,10-03-2019 14:05,4294930000000.0,kids_pets,80.79,Catawba,37.3696,-80.1284,4ed1ddd8aae2855195fc3273fc75756e,38.024611,-79.430186,0
295636,25-05-2019 11:50,2222000000000000.0,grocery_net,64.58,Moro,38.9318,-89.9618,3e9e6b746dd9e759d27423c7dc03c3a4,38.028086,-90.327653,0
179419,03-04-2019 23:06,373043000000000.0,shopping_net,958.38,Beasley,29.479,-95.9681,5d0abf19678fd22ccfe46c2d8f750e7e,29.783491,-95.465936,1
132085,13-03-2019 23:26,4.01811e+18,travel,3.4,Allenhurst,40.2367,-74.0067,3bb87e21864d6f7e4a1de63bf56f4fdc,39.919184,-74.857846,0
831314,11-12-2019 04:38,4.49745e+18,gas_transport,79.03,West Monroe,32.5317,-92.176,9438fda629329cb679b8c59e1c6e41e8,31.578535,-93.135579,0
814769,07-12-2019 22:23,4430880000000000.0,misc_net,922.87,Meredith,39.3199,-106.6596,148e5083a940687f01ae6c25ec469dea,38.902259,-106.675975,1
83799,18-02-2019 22:57,3540210000000000.0,misc_pos,8.01,Summerfield,34.7437,-102.5064,eebba0d25985c67538b474c8e628b8c2,34.432732,-101.567548,1
453270,20-07-2019 13:49,6550400000000000.0,shopping_net,3.26,Port Charlotte,26.9379,-82.2388,730075b9293ccac6c1eddf0910b671e0,26.470922,-82.525601,0
929171,04-01-2020 03:59,374656000000000.0,gas_transport,8.97,Arlington,38.8954,-77.1633,71d3c57b884ce659bbba51a38d631650,39.494355,-77.229819,1
14565,09-01-2019 03:26,6526960000000000.0,grocery_pos,301.33,Naples,26.3304,-81.5871,119742fa5c0fb98147bb370520f08f8e,26.781286,-81.183791,1
1025135,01-03-2020 03:26,4.06309e+18,grocery_pos,299.02,Mendon,41.71,-111.9817,ed6443e926f96efd127b202b587d3b37,41.643167,-112.296253,1
170913,31-03-2019 07:26,3518670000000000.0,gas_transport,60.17,Milford,39.1657,-84.233,853f8723fb261bc91e11d8af5a0f7849,38.482851,-83.562594,0
15472,09-01-2019 22:23,342036000000000.0,travel,10.53,Manquin,37.7184,-77.186,52f0ff84e35961080272e6c4b531bf89,37.988194,-77.332289,1
51277,30-01-2019 23:37,3550550000000000.0,shopping_pos,801.76,Hampton,29.8575,-82.1483,0323b65a0079beba3ea20248864e7f9a,29.554999,-82.064213,1
1030584,02-03-2020 23:21,345389000000000.0,shopping_pos,754.16,Coffeeville,33.9215,-89.6782,a5b715348cb8e1f75d400912cdc9e56c,33.232208,-89.163413,1
309179,29-05-2019 23:19,3598300000000000.0,home,117.48,Wichita,37.6395,-97.1714,0866f5e6c1b2c11eeaa80eed97aa8c1d,36.797155,-97.562113,0
123036,10-03-2019 02:42,371284000000000.0,grocery_pos,361.1,Hedley,34.8698,-100.6806,fce6a9912a1620d249b12e71e2f05a1e,35.435763,-100.597533,1
802842,05-12-2019 02:12,4.102e+18,misc_net,678.9,Keller,32.9276,-97.2489,5dac9bc792745bcc6e4cebec55bd4684,33.361261,-98.092814,1
185800,06-04-2019 22:30,630442000000.0,personal_care,33.24,May,31.9571,-98.9656,539a325cad10802cd3a6c782d00095a0,31.617553,-98.096931,0
963286,23-01-2020 19:03,4681600000000000.0,kids_pets,8.81,Moundsville,39.9148,-80.731,a3915c31066d29327d2f97df0816b102,39.297346,-80.6045,0
415476,06-07-2019 22:26,4.46746e+18,shopping_pos,974.02,Tampa,28.06,-82.4079,93753b0d15742bdd9186f82c9d7f498c,28.427186,-83.138177,1
391167,28-06-2019 10:38,213114000000000.0,misc_net,190.69,Minnesota Lake,43.8295,-93.8282,7ebeb601c91e444302a3633d5d0643b1,44.357562,-93.084227,0
382828,24-06-2019 16:39,4.46978e+18,food_dining,1.74,Methuen,42.728,-71.181,944b8a32e6c651e4b7027c8c889083c2,42.420634,-70.751513,0
760299,21-11-2019 18:43,2383460000000000.0,personal_care,10.32,Parsonsfield,43.745,-70.9092,7d9a282c081c722126dafe51427cc7f9,43.335911,-70.166799,0
1014670,22-02-2020 22:13,375623000000000.0,kids_pets,22.44,Isanti,45.4682,-93.2266,6b3af589055dad82f52a76c72fa94c86,44.695775,-92.60435,1
316570,01-06-2019 20:04,6011250000000000.0,grocery_pos,31.02,Alton,42.9782,-96.0173,81d45765a4c4f7d9b962043ec6060108,43.35962,-96.854252,0
494505,03-08-2019 22:42,3547570000000000.0,misc_net,801.71,Dieterich,39.0319,-88.4074,6d355cb60c27ebbfcbae42437356d9ed,38.856699,-88.28393,1
208019,15-04-2019 23:38,3548710000000000.0,misc_net,859.7,Granbury,32.425,-97.7742,bf8be41f51aa127f63e20a9fff865e5f,33.395416,-97.243678,1
885251,23-12-2019 03:21,3546440000000000.0,gas_transport,9.15,Byesville,39.9623,-81.5485,8ff6a88bf46786f34b8554c42538e5eb,39.072812,-80.611895,1
911729,29-12-2019 10:41,4.79894e+18,grocery_net,34.72,Bay City,43.6088,-83.953,554b0b9ea1b65c7ba07cf817cf2836d5,44.559331,-83.186798,0
934702,06-01-2020 15:12,4555100000000000.0,travel,531.27,Rock Glen,40.954,-76.1747,f37e10d4b2b76eddd64553a574f7eb0c,40.177509,-76.674114,0
946885,13-01-2020 16:01,4640400000000.0,personal_care,67.47,Fordoche,30.6576,-91.6264,1f35f882d6ab72f43e90c634e4cf8e43,30.482498,-90.971536,0
813608,07-12-2019 18:04,213127000000000.0,travel,1314.9,Laredo,27.5155,-99.4986,05b94d076d8ea07ee9b10a2b8190d831,27.150404,-98.849367,0
815276,08-12-2019 00:17,584674000000.0,grocery_pos,275.98,Coleharbor,47.5196,-101.2332,81da18485dacf7d7f7ace29b4d1d236e,47.483097,-100.394611,1
743567,14-11-2019 08:17,3525590000000000.0,grocery_pos,335.05,Haw River,36.0424,-79.3242,9d364c9a6c8447841b02ce999349729a,36.012079,-78.605056,1
238390,29-04-2019 14:48,30344700000000.0,travel,2.13,Blairsden-Graeagle,39.8127,-120.6405,71bd7cde7996a79ea8c5466e2a097d54,39.820223,-121.569154,1
31798,20-01-2019 02:20,340951000000000.0,grocery_pos,348.74,Orangeburg,41.0442,-73.9609,cdb5a58edd3b6fda0c677b0e0e868a59,40.090338,-74.017922,1
913634,29-12-2019 17:03,4629130000000.0,shopping_net,1197.23,Benton,35.173,-84.6544,97e7bedc7986c70f423f31e6e7939307,35.045894,-84.385664,1
523563,13-08-2019 16:02,5152050000000000.0,health_fitness,32.28,Gretna,29.8872,-90.0331,30500078fd765f597cf6ebc4f65958da,29.705701,-90.461763,0
626320,23-09-2019 06:23,6011110000000000.0,grocery_pos,204.86,Wilmington,34.2651,-77.867,ec478c572dab5be56d3a139807a68d4a,33.351067,-77.971342,0
715454,02-11-2019 02:26,4990490000000.0,grocery_pos,327.34,Corriganville,39.6967,-78.8031,fbf09578e89fd2fbc95fb0dba30ed32c,40.127195,-79.390481,1
739789,11-11-2019 22:39,4.39097e+18,shopping_pos,895.87,Oklahoma City,35.6174,-97.5583,e45c538adc49eb212b4d5a823178cb22,34.93633,-97.891197,1
518370,11-08-2019 23:01,4189810000000.0,shopping_net,888.06,Ragland,33.7367,-86.1619,0325b4bce2b98975c7f32c6bc6fde537,34.398983,-85.354081,1
518200,11-08-2019 22:11,4189810000000.0,shopping_net,973.28,Ragland,33.7367,-86.1619,eb6bccb7ca78ddabf40c07332941d1f3,34.655082,-86.673736,1
106969,03-03-2019 01:00,3562680000000000.0,grocery_pos,281.19,Queenstown,39.0026,-76.1424,4a6df48483ef3e9c7c4b4476431645d6,39.322597,-75.338943,1
64647,07-02-2019 23:50,4.48826e+18,shopping_net,1139.52,West Columbia,33.9568,-81.1405,cb120143f2405eef124175dda9b36844,33.938981,-81.431148,1
773224,27-11-2019 03:15,4926380000000000.0,grocery_pos,368.78,Cherokee Village,36.3011,-91.5281,112e3cf52cada99fe5291b944d331cb6,35.408229,-91.686427,1
378500,23-06-2019 14:17,30150700000000.0,home,42.37,Paint Rock,34.7031,-86.3068,ee7dd4be4dc7b85ae4f89744d5b19bb0,34.549772,-86.213276,0
788895,01-12-2019 20:29,3562680000000000.0,home,44.37,Queenstown,39.0026,-76.1424,70eeb23b5ef7b5689da219d6533a7d87,39.760205,-76.577414,0
669418,12-10-2019 18:21,4.0891e+18,shopping_pos,7.53,Kilgore,32.3836,-94.8653,d313353fa30233e5fab5468e852d22fc,32.202008,-94.371865,0
27254,16-01-2019 16:11,4878360000000000.0,grocery_pos,311.01,Early,42.4483,-95.1726,95bae2e173f59aa359e59d50b85c81c6,42.088057,-95.20756,1
786473,01-12-2019 12:54,4195830000000000.0,home,4.15,Clarksville,39.3465,-90.9362,87149b8514e18fcaab07ef65afd8e0eb,39.5207,-91.17252,0
1037270,06-03-2020 06:07,6012000000000000.0,misc_pos,5.56,Harrington Park,40.9918,-73.98,526d2a7a974a7667e5424b0f629ba5e8,41.224646,-74.455913,0
952251,17-01-2020 12:52,4328930000000000.0,shopping_pos,20.59,Greendale,42.9373,-87.9943,5c09ec083ce8e0a02fa257ceaaffd89c,43.804237,-87.715986,0
542617,20-08-2019 07:37,341546000000000.0,grocery_pos,107.71,Wales,64.7556,-165.6723,5e4edd512e34d41af767d76fae8636a2,65.740467,-165.378066,0
318759,02-06-2019 11:29,4538570000000.0,gas_transport,59.93,Fairview,40.817,-74.0,fbf9403b5c23f18090596fb7c91054da,40.752482,-73.46865,0
116257,06-03-2019 23:06,2227670000000000.0,health_fitness,18.86,Clearwater,27.9004,-82.7152,2a23e0b76a9a96565c04fed623095dc3,27.773273,-83.636787,1
977401,01-02-2020 04:53,30082000000000.0,misc_pos,8.09,Naples,26.1184,-81.7361,6c1a34bbb2c2dde736a21569654a1166,26.475444,-80.879037,0
135772,15-03-2019 23:02,6011550000000000.0,shopping_net,1016.82,Lonetree,41.0552,-110.1603,e94f1b0d94e770c4bd650f46113fa928,41.721338,-109.350232,1
699029,25-10-2019 21:43,36913600000000.0,kids_pets,77.59,Meridian,43.6498,-116.4306,c3f15a692d768e99e1705d0cb4035065,43.606873,-116.665905,0
78759,16-02-2019 13:48,4755700000000.0,travel,1.29,Sachse,32.9643,-96.6012,319c43acf97949d8ad25f4e36579aab1,32.275576,-97.349765,0
1002708,15-02-2020 22:31,213103000000000.0,shopping_net,906.86,Gardiner,43.7857,-124.1437,9da1eea50f1d5ddff2872d010f8f24af,43.910122,-124.381676,1
793162,02-12-2019 14:10,5130480000000000.0,misc_net,857.49,Beaverdam,40.8314,-83.9758,87b0360e4154dab0f5c7708c37df8cfd,40.15014,-83.819817,1
6240,04-01-2019 23:59,341546000000000.0,health_fitness,18.17,Wales,64.7556,-165.6723,891cdd1191028759dc20dc224347a0ff,65.447094,-165.446843,1
507658,08-08-2019 13:58,4.40001e+18,health_fitness,3.9,North Loup,41.4972,-98.7858,0071122e1cb8e73000ee69402d62c3c1,41.314589,-98.770969,0
7509,05-01-2019 22:05,30328400000000.0,shopping_net,1177.79,Browning,40.029,-93.1607,f1c51701d8b5dd6ebfe7c1aebf0c4fe7,39.288305,-92.476947,1
827143,09-12-2019 21:35,4514240000000000.0,entertainment,36.16,Laramie,41.4247,-105.4781,f96d0436a35014455ab38ce0fde65cb1,40.923495,-105.100407,0
600343,12-09-2019 05:05,4900630000000.0,gas_transport,69.76,Norwalk,33.9056,-118.0818,70afeb69d35460edb0e64d244ce7744c,33.528272,-118.200077,0
1022140,27-02-2020 02:15,6011390000000000.0,grocery_pos,314.47,Los Angeles,34.0443,-118.2509,5ce14fd8dcbc5ea4068d8c2436576ca5,33.150338,-118.568737,1
30248,18-01-2019 23:31,372246000000000.0,kids_pets,6.06,Deadwood,44.3566,-103.6999,4886a67813ff3bfdf38359908d5c0d2b,44.371569,-104.435937,1
623495,22-09-2019 10:09,180085000000000.0,grocery_net,13.22,Lolita,28.7724,-96.4793,31a57aae489bacac6db91a1aa93ff4ff,28.858709,-96.897172,1
340228,09-06-2019 20:39,3501510000000000.0,shopping_pos,657.97,Naples,26.1184,-81.7361,e2c364508a39d4e10cb2b1cf4895ad8f,25.156387,-81.79549,0
667978,12-10-2019 05:12,30248900000000.0,grocery_pos,291.43,Cross Plains,32.1482,-99.1872,3afd100652bf51a63993a63bb92a20e0,32.309593,-99.575854,1
797566,03-12-2019 12:53,4169390000000.0,food_dining,52.59,Port Gibson,43.033,-77.1575,3c8a518abd92bf59e7874109e58069db,42.779458,-76.786229,0
918818,30-12-2019 13:33,2291160000000000.0,food_dining,51.17,Columbia,33.9659,-80.9355,b97e5f6bea4d522b4079ea589985de4d,34.125372,-80.425184,0
206771,15-04-2019 15:41,3598300000000000.0,kids_pets,181.05,Wichita,37.6395,-97.1714,56ac505b49719e14c3c1132ea9ca6e55,37.998511,-96.900865,0
685953,19-10-2019 23:23,4561550000000.0,shopping_net,1105.82,Moriarty,34.9889,-106.0609,62d509c1a41047b10cced1328a241969,34.546454,-106.901401,1
73286,12-02-2019 16:02,347073000000000.0,food_dining,123.61,Alva,44.6873,-104.4414,c5aa0494ac7edf0ce2e6c2b70a6ebca6,44.845781,-104.414629,1
715315,02-11-2019 00:46,4990490000000.0,grocery_pos,339.31,Corriganville,39.6967,-78.8031,665446953e0ee7af0bb03b8bce056bab,39.64344,-79.590405,1
212683,18-04-2019 20:12,346208000000000.0,travel,6.38,New York City,40.7105,-74.0163,d9a20d8bd8f44d76a192c5e00e530da4,39.793118,-74.167193,0
667367,11-10-2019 22:43,4633070000000000.0,shopping_pos,922.35,Providence,41.8383,-71.4377,e439dafe1097869e9763c2103f967807,42.364068,-71.766742,1
390683,28-06-2019 04:20,4198470000000.0,gas_transport,68.78,Avoca,41.4768,-95.3509,89513fca3eee80131f70e8e7f386a7b8,41.802724,-94.633748,0
540825,19-08-2019 16:54,30135200000000.0,home,236.0,Independence,39.1412,-94.3515,b8309572e550eb0774cbc0a868dd4a3f,39.582967,-94.800369,1
406950,03-07-2019 17:16,4048510000000000.0,entertainment,122.61,Fullerton,41.366,-98.0054,1ced76f332bdb3cb119bfa2bbc4f8a54,41.99526,-97.511796,0
5577,04-01-2019 15:20,4922710000000000.0,misc_net,795.22,Manor,40.3359,-79.6607,2e88359c19111450f2e481e6d527eec0,40.352547,-79.327751,1
100548,28-02-2019 00:22,630426000000.0,grocery_net,14.69,Cass,38.388,-79.9906,f804a82fee892f083fc56db4f631340f,39.159464,-80.984738,1
900795,27-12-2019 03:55,4116550000000000.0,gas_transport,14.05,Port Saint Lucie,27.2625,-80.3793,22c05923e7ef74014958574e3396d1d1,27.375849,-79.483655,1
142672,18-03-2019 10:12,6511350000000000.0,shopping_net,2.2,Ruth,39.3426,-114.8859,f6f006eea99fda2885313c3e1f0344bc,40.151477,-114.496982,0
282315,19-05-2019 13:24,6502200000000000.0,shopping_net,1007.47,Red Cliff,39.4584,-106.3851,003f607aa5842f3f760c1c2626bb1dab,39.541137,-106.698121,1
834152,12-12-2019 00:09,3564840000000000.0,gas_transport,79.4,Port Costa,38.046,-122.1866,b647e14377ba6b3fac16c313be33fb9f,39.03724,-123.09362,0
786363,01-12-2019 12:31,38014400000000.0,home,41.88,Adams,43.8967,-89.8219,3944e12edf23aa69d6f31cc5dea6a8fc,43.300171,-89.936158,0
837550,12-12-2019 22:18,4981130000000.0,kids_pets,12.98,Holloway,40.0113,-80.9701,44e2181e2c1cfa80b8c257474e25c01a,39.564704,-80.992939,0
239693,29-04-2019 22:47,345226000000000.0,shopping_pos,977.96,Ashland,38.4722,-82.6461,a1d8f6f3146374888847692e48187b2e,37.807366,-82.58045,1
842478,14-12-2019 05:21,3582400000000000.0,shopping_net,54.65,Spirit Lake,47.9657,-116.868,27a7226fa60a9d56cedd44ced0fd07bd,48.681169,-117.440844,0
161018,26-03-2019 08:50,676248000000.0,misc_pos,1.09,Cape Coral,26.6939,-81.9452,634c3092e3ece662892cadeb6d0ad8de,25.908821,-80.959955,0
590739,07-09-2019 23:43,377265000000000.0,misc_net,783.49,Cassatt,34.3424,-80.5,858f2c5aa6e7db3efb70cf0af579343d,34.22444,-80.000576,1
202006,14-04-2019 00:53,3535810000000000.0,grocery_pos,110.3,Tower Hill,39.39,-88.9597,901474d61072522592e75525882ce8bd,40.354661,-88.359398,0
95670,25-02-2019 22:55,3543890000000000.0,shopping_net,1010.74,Mount Vernon,40.9086,-73.8221,5a8a5861a1e87b8e0cb2fdf235d45262,40.77748,-73.041467,1
154045,23-03-2019 21:37,3531130000000000.0,kids_pets,2.51,Brandon,43.8065,-73.0882,59f431d43e956b629bc4a90927cf940c,43.800428,-73.888204,0
868303,19-12-2019 18:29,4.85549e+18,food_dining,61.45,Graniteville,44.1554,-72.4847,3a5964081a18d7504e8c4853f1458f50,44.694073,-71.833538,0
1021938,26-02-2020 22:46,4839040000000000.0,shopping_net,974.87,Hedrick,41.1826,-92.3097,19fe8266b5a2dacc8a3128115d5c013b,41.827931,-91.412477,1
22859,14-01-2019 13:55,676373000000.0,home,55.49,Esbon,39.7562,-98.4462,4fe26f5c064fb98fc02d51d19e623f89,39.328281,-97.818846,0
74056,12-02-2019 22:12,4.21008e+18,entertainment,615.49,Lowell,43.921,-122.7806,fa546967d00f184de2e99e4df4c2be5e,43.28018,-122.063582,1
771353,25-11-2019 22:41,3598900000000000.0,food_dining,127.81,Norwalk,41.2403,-82.6078,94f80338f56e539310f84c10c9c11fa8,41.226756,-83.475536,1
648761,03-10-2019 13:38,2235340000000000.0,personal_care,54.69,Waynesfield,40.6072,-83.9585,f1626d5e2db4758b640f797150a6cbe5,39.681955,-84.948187,1
173112,31-03-2019 22:36,4988300000000.0,health_fitness,58.38,Rock Tavern,41.4575,-74.1659,b28dc98b3f7f03a7178955eaf049864d,41.5167,-75.100119,0
570816,31-08-2019 01:58,676308000000.0,gas_transport,10.72,Washoe Valley,39.2669,-119.8174,f9d695d0dbda76873154c80a62e26d25,38.896379,-120.773613,1
549689,23-08-2019 15:23,4904680000000000.0,home,23.76,Cottekill,41.8467,-74.1038,7d0a0d68c9ab35f3452677f44446bfcc,42.787623,-73.918179,0
471590,27-07-2019 01:37,3577660000000000.0,gas_transport,17.95,Lepanto,35.6069,-90.3359,932c5dc48f0bc4a62f47584bc15cc63c,34.956492,-89.720299,1
116058,06-03-2019 20:41,2227670000000000.0,personal_care,17.82,Clearwater,27.9004,-82.7152,f730b2d4559d10b256268c772ed6ac87,27.436181,-82.747712,1
903825,27-12-2019 23:03,3521420000000000.0,home,218.02,Indianapolis,39.849,-86.272,e8a6e0ade80951b6e25239075129c5cd,39.630786,-86.856062,1
625951,23-09-2019 02:49,3534090000000000.0,grocery_pos,321.05,Boulder,46.2306,-112.1138,2dfa63e8c114dc8d23b452b1a112bb85,46.319221,-112.888435,1
651001,04-10-2019 17:41,379141000000000.0,personal_care,36.18,Monetta,33.8084,-81.5956,cef0948db3aa85e0cb6ee05f942802f6,32.948689,-80.755234,0
567693,29-08-2019 20:39,2233880000000000.0,travel,2.16,Sturgis,33.357,-89.0473,d85f1dc5e678d9e6e314086313049c52,33.135621,-89.579058,0
311518,30-05-2019 23:02,630425000000.0,shopping_pos,1.98,Thomas,39.1505,-79.503,857433d6d3fc07717c80aac103244688,39.951819,-79.746341,0
252140,05-05-2019 21:52,4079770000000.0,personal_care,7.25,Mesa,44.6255,-116.4493,07aaf84745f33c2d9a9126421b059c58,43.722061,-116.148642,0
236270,28-04-2019 21:30,630413000000.0,personal_care,38.92,Republic,46.368,-87.9938,576441731d7eb43d7ea3f6ca92e624d7,45.395161,-87.874816,0
961954,22-01-2020 19:06,3511380000000000.0,home,47.52,Huntsville,34.7789,-86.5438,773c4d90f29ad1b5b5b6a86dcf88092e,34.493731,-86.973264,0
795969,02-12-2019 23:08,371009000000000.0,shopping_net,947.25,Norman Park,31.2462,-83.6549,f3136574226cb54d481d57a3dc35f4ce,31.480413,-83.754288,1
59878,04-02-2019 23:48,6592240000000000.0,health_fitness,92.14,Montgomery,32.3374,-86.2715,09db2318286d087c652f2e943c78e9d6,32.361817,-86.802934,0
170043,30-03-2019 23:14,3533010000000000.0,kids_pets,15.95,Barneveld,43.2237,-75.1612,06cdff431df633f5c6b139f3d6495dee,42.910501,-74.600564,1
605204,14-09-2019 15:08,30427000000000.0,kids_pets,110.53,Detroit,42.377,-83.0796,a1a155767ca9450e7a02077962a4b2a7,41.461729,-83.770295,0
805998,05-12-2019 22:46,3517810000000000.0,shopping_net,1005.34,Union,37.5802,-80.5248,d940b93a799b06aa74123f72b92646b5,36.667053,-80.727748,1
815181,07-12-2019 23:54,4430880000000000.0,travel,9.42,Meredith,39.3199,-106.6596,7d4e93229c680ede53c7102516b6c51d,38.649013,-105.896923,1
662656,09-10-2019 11:29,30235300000000.0,grocery_pos,42.29,West Harrison,41.0592,-73.7395,5dc20482d88f48eda33e1726e997391d,40.647543,-74.229524,0
402143,01-07-2019 15:18,2235610000000000.0,travel,3.49,Manville,42.73,-104.7024,d1568ae46a844c5a1266758f72e6ab33,42.690957,-105.47846,0
748596,16-11-2019 17:43,4629450000000000.0,grocery_pos,31.19,Hahira,30.9416,-83.3574,0d5c92dcf7cad26b6c868e486ea94294,31.82702,-82.654284,0
569099,30-08-2019 12:14,213103000000000.0,entertainment,22.93,Gardiner,43.7857,-124.1437,171cbaf964dfa4362658727f5609db85,43.188893,-124.238342,0
783966,01-12-2019 00:51,342351000000000.0,misc_net,134.26,Juliette,33.1194,-83.8235,2cbaec1f74a40189b7680fb307ef0387,32.703441,-84.495993,0
749791,17-11-2019 03:24,4449530000000000.0,shopping_net,8.52,Tomales,38.2427,-122.9145,54c4f78383801dc647b33000e2b86b1b,39.033343,-123.406553,0
661584,08-10-2019 18:01,4423490000000000.0,food_dining,19.96,Princeton,41.6858,-90.3706,68d5412b9ade41d47e1f0113ee52fd69,40.849377,-90.793884,0
288525,21-05-2019 22:42,370349000000000.0,home,130.03,Tickfaw,30.5668,-90.482,0989aded2611a73294e6a3d6cdfcc2a3,29.633629,-90.176734,0
97247,26-02-2019 16:21,3576430000000000.0,personal_care,60.02,Phoenix,33.5623,-112.0559,a0a3a08d97163a7c26fd3b9b7264f4e0,33.856213,-112.855894,0
149853,22-03-2019 01:40,4076170000000.0,gas_transport,8.1,Kaktovik,66.6933,-153.994,6ae5e05007044afc26e1ce1bf3ee88b0,66.835174,-154.388882,1
654487,06-10-2019 01:39,639030000000.0,gas_transport,7.44,Olmsted,37.1935,-89.0933,dd22f6ff3c9ac600d83541a86d890760,36.514962,-89.527343,1
805272,05-12-2019 18:43,4306630000000.0,home,34.21,Saint Louis,38.6171,-90.4504,e0da53a308b4448777c80a8cd9604fa1,38.203436,-89.672428,0
111380,04-03-2019 13:13,6544730000000000.0,entertainment,2.33,Highland,41.55,-87.4569,83f430e3d263740196484f68c426f746,40.952714,-87.678083,0
502056,05-08-2019 20:59,2283740000000000.0,shopping_net,2.24,Alpharetta,34.077,-84.3033,5f29d48de2ad8d0d899f610e80844413,33.461489,-83.967395,0
639206,29-09-2019 08:20,4.73685e+18,shopping_net,7.8,Altona,44.8816,-73.6408,284616ee3f829a7ca6ef9641b62b1e70,44.643245,-73.349894,0
876031,21-12-2019 15:49,502013000000.0,food_dining,2.73,Garrattsville,42.6315,-75.1866,0b6feca291f34fdb745ca7ba81c4bea9,41.72786,-74.446141,0
771299,25-11-2019 22:26,3598900000000000.0,grocery_pos,320.26,Norwalk,41.2403,-82.6078,de391d925e1aa1f86cc77cf0e8f0e21b,41.042223,-82.308471,1
780658,30-11-2019 12:32,376944000000000.0,home,42.44,Grand Bay,30.4983,-88.3282,3bd101f83a4260a8a61a53464b4bb340,30.758417,-87.923299,0
55417,02-02-2019 23:12,3560800000000000.0,shopping_pos,831.73,Shields,46.1838,-101.2589,2f4bf4ecfcfdcd27abd51b7f287abfd5,45.756676,-101.116187,1
657952,07-10-2019 04:40,4.22622e+18,grocery_pos,331.98,Bethel,38.9424,-84.092,309e9bcaec8a4905cf16e4047e199097,39.447571,-84.570247,1
145171,19-03-2019 09:25,38295600000000.0,shopping_net,1143.13,O Brien,33.3749,-99.8473,784ca32a8369fb370d1b9f4776aea5b1,32.99763,-99.443214,1
761467,22-11-2019 11:09,571844000000.0,grocery_pos,98.47,Louisville,38.2507,-85.7476,720312ac52a9c2ca34a458c6a363bbed,38.001284,-85.863377,0
666851,11-10-2019 17:11,4633070000000000.0,shopping_net,1009.3,Providence,41.8383,-71.4377,2a57ecaeeb52d67f3578a7bccd02a61b,42.089771,-71.83663,1
329138,06-06-2019 02:29,4670610000000000.0,grocery_pos,296.97,Cuthbert,31.7706,-84.7936,fcaf08547192df72a060edcfe4770b32,31.392889,-85.516787,1
1027606,02-03-2020 00:37,374930000000000.0,grocery_pos,320.41,Romulus,42.2203,-83.3583,2ffd38c5eb8351780fa615ba2dfb59ed,42.457021,-83.385552,1
785374,01-12-2019 07:42,6592070000000000.0,grocery_net,66.79,Philadelphia,40.0897,-74.9781,4458fc820bb9c92927e8949e200cf2e3,40.015865,-74.206438,0
662098,09-10-2019 01:27,4.2929e+18,grocery_pos,287.62,Sula,45.8433,-113.8748,10655a4eb3f98fb5aec9c5589cfd8bfe,45.182393,-114.072718,1
267065,12-05-2019 16:11,3534330000000000.0,travel,561.47,Bridger,45.2857,-108.9082,9aa3e4238a14bb7b3ffb40648f89b13b,45.34329,-108.804711,0
50424,30-01-2019 06:31,3596360000000000.0,gas_transport,48.65,Morrisdale,41.0001,-78.2357,f1c16bde0ce9d8df7b1f875953e0953b,40.830062,-79.184332,0
90056,23-02-2019 01:26,6011500000000000.0,shopping_net,1003.34,Jones,32.5104,-86.8138,866e1081ae641a6064eb00444cf7b8a8,31.81996,-86.057729,1
1042618,08-03-2020 18:19,375083000000000.0,home,72.81,Georgetown,47.0999,-96.727,b88f4830102eb34a55516d405909d013,47.320917,-95.84111,0
516625,11-08-2019 14:38,4746000000000.0,food_dining,3.4,Kingsford Heights,41.4802,-86.6919,d1dbd27157b330cf654ae91a87a8f8f4,41.759606,-86.416078,0
375347,22-06-2019 17:03,571365000000.0,personal_care,22.37,Elberta,44.5995,-86.2141,1fe7977b23456398e978b1315f85276c,43.711829,-85.885218,1
860387,17-12-2019 10:38,4254070000000000.0,shopping_net,823.12,Allentown,42.0737,-78.0594,2725424befdd73ac2945721bd79522f7,42.888483,-77.562046,0
517293,11-08-2019 17:51,3527540000000000.0,shopping_net,6.24,Brunson,32.9413,-81.1807,c5d0738ad501e87a1fc2818be3ac0a82,32.986618,-81.282663,0
969726,27-01-2020 02:12,3543300000000000.0,entertainment,455.12,Lebanon,36.8809,-82.0956,799ad7b8b8f26de867ef481893ff7f93,37.133808,-82.221587,1
1047706,10-03-2020 10:03,180095000000000.0,shopping_net,1.4,Westfir,43.7575,-122.481,609292d286c8f2055707441d3b592ee5,42.958393,-122.647361,0
717663,02-11-2019 22:09,373905000000000.0,food_dining,128.18,Meridian,31.929,-97.6443,795a88a08b3822ee44811f3b8949cef7,31.737163,-97.628147,1
360323,16-06-2019 21:40,6011390000000000.0,food_dining,163.95,Dunlevy,40.1151,-79.8627,5529072524fe3fd571a5f6173075894b,39.90493,-80.110038,0
638150,28-09-2019 22:41,4.11027e+18,home,206.38,Sunflower,33.5567,-90.5451,b8d784f7b793bd4e4a51f12e0587638f,33.582091,-89.907194,1
380029,23-06-2019 22:08,639024000000.0,entertainment,12.95,Hannawa Falls,44.6087,-74.9732,b675f0b96602771e5b9e3258ff7ab83b,45.452821,-75.697868,0
598284,10-09-2019 22:05,30499700000000.0,grocery_pos,315.42,Mineral,37.9986,-77.8781,bf0f430a10843f059d61bf86c0437b7e,37.079491,-78.784817,1
287050,20-05-2019 23:29,4844240000000.0,shopping_net,988.92,Downey,33.9581,-118.1174,a5eea2bf91e5305140900ab8ca5060bf,33.14525,-118.329441,1
160344,25-03-2019 22:40,371683000000000.0,shopping_net,951.47,Iselin,40.5716,-74.3167,a9c87e55c3e3e7de24bb9f5653c51913,41.503611,-73.959436,1
946641,13-01-2020 13:59,676282000000.0,travel,13.9,Whigham,30.8836,-84.3246,3b4e541968235705b284987cb6d8ee65,30.758581,-84.986146,0
14512,09-01-2019 01:59,3513620000000000.0,gas_transport,18.86,Fulton,43.7588,-97.8712,acdc1cdf75be4966dd778b55680566a9,42.903425,-97.212673,1
862135,17-12-2019 22:33,30273000000000.0,shopping_net,974.0,Thida,35.5762,-91.4539,1c585db8f15ba9a250c85be41b79a9da,36.003454,-90.819634,1
268331,12-05-2019 23:42,630452000000.0,kids_pets,20.57,Wetmore,46.3535,-86.6345,d557ca1ace1282191cd0e808941ce600,45.740042,-86.610212,1
713402,01-11-2019 00:38,180095000000000.0,grocery_pos,325.32,Westfir,43.7575,-122.481,c99d0ab7f1794b57c0d0fc0f4081e2bb,43.97096,-123.069785,1
676337,14-10-2019 23:03,370819000000000.0,travel,8.56,Rockwood,39.9373,-79.1865,82357797656a5feb8ba443f24da27700,40.049239,-78.298384,1
144908,19-03-2019 03:52,38295600000000.0,misc_net,868.4,O Brien,33.3749,-99.8473,1a48a25479c86c689274b268b46a9021,33.859207,-99.245257,1
840697,13-12-2019 19:20,30364100000000.0,kids_pets,21.31,Mounds,35.8896,-96.0887,7a0635772dc610fe9e9bec0fb5eb912a,36.129931,-96.777232,0
1041687,08-03-2020 10:46,213174000000000.0,shopping_pos,4.14,North Judson,41.2244,-86.6966,65fe5298945bb8b4c8582ffdbd3f24b3,40.561236,-86.676326,0
149774,22-03-2019 00:37,6540980000000000.0,gas_transport,9.86,Detroit,42.426,-83.15,e67535e3ecc8bf54a3841629ee2aa025,43.24632,-83.937784,1
1012662,21-02-2020 22:02,4.90663e+18,shopping_net,843.5,Key West,24.6557,-81.3824,3c5482983dabee592725de614f34ac03,24.974028,-80.957233,1
193773,09-04-2019 23:29,3519610000000000.0,misc_net,697.52,Fields Landing,40.7268,-124.2174,14fcb8822f2b0f29636d5a37781fbefc,40.566166,-123.975972,1
601676,12-09-2019 22:04,374238000000000.0,misc_net,683.03,Kent,45.0838,-120.6649,2086eea313464d049a538a7ca2c52689,44.147484,-120.818801,1
148730,21-03-2019 13:14,3556610000000000.0,entertainment,7.13,Lake Jackson,29.0393,-95.4401,144c95fbffaabc72d80edbfa4b41af5e,28.487769,-96.392999,0
949826,15-01-2020 18:14,503874000000.0,food_dining,24.94,San Antonio,29.5894,-98.5201,a3860ce2edae7846faeae998bdabd121,29.147644,-98.889458,0
518291,11-08-2019 22:42,4294040000000000.0,shopping_pos,927.78,New Ellenton,33.413,-81.69,d916ee3a2a254457ab1d5c9c81537fa2,32.953148,-82.648757,1
582606,03-09-2019 21:45,4328930000000000.0,kids_pets,20.35,Greendale,42.9373,-87.9943,01a2a9019fe6f81f6c4302f9d8e0164b,42.832923,-88.637116,1
342834,10-06-2019 14:08,4173950000000000.0,misc_net,165.87,Monmouth Beach,40.333,-73.9809,4adfb41bb1bc13d3d1c392acc2c7f0e3,40.109005,-74.385824,0
8514,06-01-2019 12:37,4908850000000000.0,shopping_net,231.91,Grandview,32.2779,-97.2351,16138428eb62010348e0631eff234d81,32.285323,-97.690709,0
1010053,20-02-2020 01:39,3533180000000000.0,grocery_pos,312.44,Weeping Water,40.8731,-96.1528,0d49277ef541a796c402faa0d595bba0,40.61529,-95.809703,1
567049,29-08-2019 14:56,3595190000000000.0,home,84.44,Fayetteville,35.0583,-79.008,4aec2e4a8e4cd29276e6a35d7866943c,34.148557,-79.810752,0
116272,06-03-2019 23:19,4178100000000000.0,personal_care,84.96,Baroda,41.9488,-86.4913,a0c8641ca1f5d6e243ed5a2246e66176,42.502065,-86.732664,0
462701,22-07-2019 23:17,378858000000000.0,home,63.72,Paradise Valley,33.5494,-111.9565,0f85b472e2cd66e84d09a07d04374a51,34.352015,-111.747613,0
605753,14-09-2019 19:22,4.85585e+18,shopping_net,1000.81,Wittenberg,44.8232,-89.1665,90cac32f923878ab644ee24b76e5200d,45.039962,-88.46626,1
727076,06-11-2019 20:15,30242900000000.0,travel,7.75,Afton,45.3637,-84.4695,e0c8d049b1bfd5a748483ae32a1cfc95,45.967939,-84.428669,0
920181,30-12-2019 18:09,4746000000000.0,misc_pos,169.94,Kingsford Heights,41.4802,-86.6919,9b8b63a0046afc65243f3f96e273bac4,40.529997,-87.487713,0
114565,05-03-2019 22:50,2227670000000000.0,health_fitness,18.58,Clearwater,27.9004,-82.7152,38c15db08b00bfdeedafb67648be09b7,28.514297,-82.654295,1
996910,12-02-2020 02:04,4997730000000000.0,shopping_net,982.68,Saint Paul,44.9913,-92.9487,7b0665bb116b2bc84375cd310da6490d,44.656656,-92.287321,1
1035576,05-03-2020 05:15,4642260000000000.0,gas_transport,73.26,Thompson,38.9999,-109.615,6a8ec25ec4a6815c111833bd08279338,39.788719,-108.890593,0
71981,12-02-2019 00:38,30561200000000.0,grocery_pos,286.63,Allentown,40.5891,-75.4645,667fec01fd79fc74123b7932bc398678,40.679959,-75.927867,1
21519,13-01-2019 22:17,4.66631e+18,shopping_pos,770.94,Ravenna,41.0233,-98.9041,0e4cd5fbfa6845c164b8bb7a6b21ab14,41.569284,-98.87645,1
326541,04-06-2019 20:31,3593400000000000.0,misc_net,781.52,Knowlesville,43.2363,-78.3138,c0d11632e518b41d7c977cb5c2c583ab,42.67041,-78.002425,1
873235,21-12-2019 01:49,5501080000000000.0,food_dining,62.75,Cuyahoga Falls,41.1464,-81.5107,1229110da386d1099c28e05440936f5e,40.4706,-81.88797,0
31703,20-01-2019 00:59,4277230000000000.0,grocery_pos,294.85,Rhame,46.1664,-103.7079,06666a3bb1a682d3984d1b120de7d285,46.166151,-104.035749,1
1041892,08-03-2020 12:46,3528040000000000.0,kids_pets,19.8,Winnsboro,34.381,-81.109,264572590b6eb2bd9813a565181eb25b,33.559377,-80.543533,1
54169,02-02-2019 03:26,3560800000000000.0,shopping_pos,1025.62,Shields,46.1838,-101.2589,954814828de7478ff725889f5dd4e184,46.652252,-101.509768,1
802604,05-12-2019 00:22,4.102e+18,grocery_pos,303.92,Keller,32.9276,-97.2489,1f0cc8138ca51123d58301b0b57d4576,33.683901,-97.318818,1
436084,14-07-2019 04:29,30103100000000.0,gas_transport,52.71,Morrisdale,41.0001,-78.2357,7343d6c2e46bc82bf40b712ea216e483,40.8354,-77.469879,0
371901,21-06-2019 13:09,4514240000000000.0,health_fitness,305.63,Laramie,41.4247,-105.4781,18789d29f101db1c745935403f562792,40.846526,-105.017037,0
538306,18-08-2019 23:30,376262000000000.0,shopping_pos,834.22,Lakeland,27.9611,-81.9398,ea336c25aab7f0d7bc33078932bef884,28.585493,-82.032776,1
812126,07-12-2019 12:29,38580500000000.0,health_fitness,12.12,Noonan,48.8856,-103.0098,cca2c553216ab110cdcbd2720a54ebbf,47.959255,-102.02758,0
537992,18-08-2019 21:58,3565420000000000.0,shopping_pos,949.43,Carlisle,38.9763,-87.3667,54b30050e3aef8328dbcb0e22874943b,39.803947,-87.859911,1
951208,16-01-2020 17:35,4239550000000000.0,kids_pets,19.02,Paulding,41.141,-84.5722,5191008c93e79628d6a26d1a91f9415e,40.996166,-84.309341,0
1023259,27-02-2020 22:00,4.22371e+18,shopping_pos,765.34,Mount Saint Joseph,39.0965,-84.6431,0c9b10daec81f2dce48a8b87c8842fbe,38.325199,-84.587289,1
901432,27-12-2019 08:53,581293000000.0,grocery_pos,103.95,Lahoma,36.385,-98.0727,f170cded4bbad4ebd6e11035486026fb,36.546442,-97.408089,0
355967,15-06-2019 19:14,4069980000000000.0,home,78.07,Hurricane,38.4257,-81.9943,aeb4b7cf1feeaaaf4591609606be2672,38.191504,-82.990586,0
33650,20-01-2019 23:59,3541550000000000.0,shopping_pos,1117.82,Hampton,37.0462,-76.4096,6ee7ebfdaadb946aaaafbdbd2c5e6463,37.51164,-75.678694,1
395169,29-06-2019 19:09,581686000000.0,personal_care,6.03,Cochranton,41.5205,-80.0573,e51c810ff06a77b97eb4c1fb6880989e,40.799652,-79.288933,0
930929,04-01-2020 23:56,3523840000000000.0,entertainment,519.98,Plantersville,32.6176,-86.9475,f61a853072c5874676fe07aa54e44037,32.542823,-87.665441,1
1012304,21-02-2020 17:25,4561890000000.0,misc_net,771.86,Greenwood,39.596,-86.1309,e7bf70f740b4242c63ddcf3112ec0577,40.144014,-85.925862,1
836389,12-12-2019 16:16,4446370000000000.0,health_fitness,18.66,Atlantic,37.9073,-75.5089,a50f7362411222b9aaa133191e9ac621,37.004477,-74.900344,1
922847,31-12-2019 09:35,571465000000.0,grocery_pos,286.93,Fort Washakie,43.0048,-108.8964,60d1fdbc252f04160a922452702c9dd4,42.65414,-108.429206,1
696945,24-10-2019 20:05,3538520000000000.0,food_dining,52.83,Clay Center,41.5686,-83.3632,f65d23bdb450a22d2ed8613161b5606f,41.856597,-84.185355,0
395649,29-06-2019 22:02,3519230000000000.0,shopping_net,1268.18,Amsterdam,40.4731,-80.9596,3dcde81622412d456ac5b1b0278c33dc,40.186126,-80.21682,1
998392,13-02-2020 07:13,3566090000000000.0,misc_net,32.74,Newhall,34.3795,-118.523,80ea25d19caebc3d74fdd06f81f3f7da,33.399317,-118.000562,0
2648,02-01-2019 06:28,4178100000000000.0,grocery_net,90.9,Baroda,41.9488,-86.4913,8eac3ea13735ad1fe0a51b97690e9aa3,42.726503,-86.595755,0
884746,23-12-2019 00:43,180068000000000.0,gas_transport,20.3,North Prairie,42.9385,-88.395,de02f6d34e9a63e81576e0d07ee8c4b6,43.847332,-87.858349,1
485422,31-07-2019 12:49,4302480000000000.0,shopping_pos,9.87,Muskegon,43.2326,-86.2492,30784e2ab58eeff4446cd04a88540739,42.644709,-86.381107,0
282744,19-05-2019 16:06,2720430000000000.0,shopping_net,1072.94,Bowdoin,44.0575,-69.9656,8dba850de8d190411d8dda2c101e94a3,43.9146,-69.555435,1
771393,25-11-2019 22:55,4364010000000000.0,shopping_net,1010.97,Reno,39.5483,-119.7957,aebbb844d592fbd02532f237989f23de,40.018019,-120.69455,1
138488,16-03-2019 23:36,4.35579e+18,misc_pos,50.57,Payson,39.8153,-91.2627,c0cc1bbc147f0083b1def5412c8f821c,38.910809,-91.841365,1
372525,21-06-2019 18:34,30176000000000.0,food_dining,31.54,Winger,47.5375,-95.9941,32d2221128eed67ac81fe8f73c064ad8,48.457615,-95.023752,0
811262,07-12-2019 07:57,36485900000000.0,grocery_net,10.4,Fulton,40.4971,-82.8342,7286eb66b6710910083f3cd236285ff5,39.879666,-82.395905,0
199383,13-04-2019 01:39,3533800000000000.0,misc_pos,5.88,Campbell,40.2967,-98.737,1159295a748d05357f443fde2a3bc2c9,41.263991,-98.858966,0
834250,12-12-2019 01:01,3534720000000000.0,shopping_pos,940.02,Dongola,37.3712,-89.1349,0b31ec17c930ecba2a0cbd2aabee709d,36.758604,-89.440319,1
119175,08-03-2019 14:45,3596220000000000.0,health_fitness,105.8,Birmingham,40.8626,-91.9534,cb637357071536b2e46633dd4d0e24ff,40.918578,-92.941707,0
84104,19-02-2019 02:24,4.85549e+18,grocery_net,47.8,Graniteville,44.1554,-72.4847,470f5741a0b8885b7333f767f9ca9a33,44.510428,-71.969005,0
825953,09-12-2019 17:45,5410060000000000.0,travel,6.31,New Franken,44.5592,-87.8235,d61acc74c01226b6cc03515b177fbd06,43.877572,-87.220576,0
387236,26-06-2019 16:01,6517220000000000.0,health_fitness,7.71,Sontag,31.6453,-90.1801,ce9d6b8329657f9f832a340fe75897c1,31.791844,-89.918719,0
474396,27-07-2019 22:11,3595110000000000.0,shopping_pos,794.94,Cardwell,36.0434,-90.2907,91f2af3fd12e6f6b670a33ef959df2c2,36.955324,-90.289237,1
876808,21-12-2019 18:33,4279160000000.0,food_dining,120.93,Vanderbilt,40.0246,-79.6955,d287ef4fe66a0d18d536989ae4a0c947,40.042946,-79.920583,1
12099,07-01-2019 23:58,3597980000000000.0,grocery_pos,289.69,De Queen,34.0442,-94.3386,684dc0e31f25528e2daf78e488f6adca,34.90683,-94.7085,1
431829,12-07-2019 20:37,3518230000000000.0,entertainment,15.08,Sherman,33.6372,-96.6184,055f450c81651c50de782af6981299aa,33.601142,-97.612489,0
855801,16-12-2019 12:20,4.0401e+18,entertainment,82.22,Palermo,48.3396,-102.24,0daae380418a9fdd3c8616619a8e7efe,48.977448,-101.755526,0
32567,20-01-2019 13:06,4247920000000.0,travel,3.79,Washington Court House,39.537,-83.455,88c65b4e1585934d578511e627fe3589,39.156673,-82.930503,0
284767,20-05-2019 07:41,30501600000000.0,grocery_pos,87.35,Scotia,32.6786,-81.2455,573202e662b593b47296b7b17c8b6a69,32.111772,-81.525466,0
33585,20-01-2019 23:16,6597890000000000.0,kids_pets,58.27,Holliday,33.6751,-98.6576,234aca4682240d4a9b66045be00e8a25,33.929605,-97.98893,0
628692,23-09-2019 23:10,4191110000000000.0,kids_pets,2.75,Amanda,39.6251,-82.7552,cb396f839e1a4d620bd092d9a3685ce4,38.832747,-82.00606,0
680002,17-10-2019 05:58,3538520000000000.0,grocery_pos,127.54,Clay Center,41.5686,-83.3632,cee0751486621b90a46ca6cb50e1c0de,42.33677,-83.046572,0
798485,03-12-2019 19:16,30428200000000.0,kids_pets,49.1,Schaefferstown,40.3087,-76.2963,e2ded88b2117ce66714f6a2601193689,40.49658,-77.096378,0
59646,04-02-2019 22:05,4451950000000000.0,misc_net,644.3,Nazareth,34.5444,-102.1069,4d13016c887536fca92e293f3dd3431d,34.347808,-101.9906,1
360983,17-06-2019 01:22,571314000000.0,gas_transport,7.8,Mc Clellandtown,39.8882,-79.8694,997712f31b19586187f17449f0521925,40.244758,-80.197358,1
965085,24-01-2020 23:49,560881000000.0,shopping_pos,754.13,Liberty Mills,41.0356,-85.7358,63c65e957eee03933875088115779bbf,41.599928,-85.431739,1
744735,14-11-2019 22:00,5127410000000000.0,shopping_pos,773.78,Washington,38.9367,-76.994,735f9cab6a5cf7abdaef70bf55ad77f4,39.246233,-77.49164,1
93104,24-02-2019 20:22,30235000000000.0,shopping_pos,3.52,New Holstein,43.9446,-88.0911,19c90e975541bb7169c61dd86965c5b6,44.936817,-87.32267,0
210577,17-04-2019 16:28,60422928733.0,misc_pos,7.13,North Augusta,33.6028,-81.9748,0b4fe32945b030119037dd8d278aa244,32.98808,-81.866199,1
234585,28-04-2019 09:57,345934000000000.0,grocery_pos,149.81,Whaleyville,38.4121,-75.2811,26a055439599ee75b124c968b08d61e7,38.843928,-74.984344,0
612810,17-09-2019 00:33,501899000000.0,grocery_pos,124.61,Gadsden,33.9845,-85.9077,1ccfb50e0ca5d98548bd734ccf760f47,34.432543,-86.871264,0
51252,30-01-2019 23:17,3575790000000000.0,entertainment,540.67,Centerview,38.7897,-93.8702,094d60bc0e12a77a1945ebf7b2a4e217,39.287665,-94.091537,1
878175,21-12-2019 23:39,180040000000000.0,shopping_net,1289.07,North East,42.2008,-79.8332,f635d61d8215e13252ca841ca19b0f73,43.03858,-79.865274,1
53904,01-02-2019 22:36,4658120000000.0,home,139.73,Crownpoint,35.7206,-108.0271,d7d1f5313a0c5d6d2b517a872cf93015,36.190556,-108.906226,0
502310,05-08-2019 22:20,213158000000000.0,kids_pets,19.85,Rock Springs,41.606,-109.23,59f7a37240144cdeffb90b7dd011cba2,42.176084,-108.557866,1
229268,26-04-2019 04:33,213158000000000.0,misc_pos,12.81,Rock Springs,41.606,-109.23,7ab64a8be55d06e0abb101b6bbab3c72,41.110738,-109.82344,0
781309,30-11-2019 14:57,4191110000000000.0,kids_pets,101.65,Amanda,39.6251,-82.7552,b4a4ba8f64d75207ca6cd63664a9e834,40.214194,-83.645234,0
201737,13-04-2019 22:35,4917230000000.0,travel,1.18,Sardis,32.2844,-86.992,d46e457c164306a1d8e8aeed48146f61,31.98872,-86.059182,1
55079,02-02-2019 18:59,2242540000000000.0,personal_care,10.39,Westport,38.4921,-85.4524,9a2a77bb4f8ad648a7a3d9968d66234c,38.707422,-85.9018,0
542389,20-08-2019 03:43,30135200000000.0,misc_net,735.87,Independence,39.1412,-94.3515,48136f54e4a9e3ab61c05283f8d17e07,39.890976,-94.263609,1
841519,13-12-2019 23:58,4450830000000000.0,home,256.44,Clayton,34.5906,-95.38,a471e1f05f8cf77418feebd133e86bdc,35.242402,-96.015075,1
192171,08-04-2019 22:45,36721400000000.0,entertainment,537.36,Jefferson,42.4999,-74.6117,dca86c443a356375abcb58dbc1fd2071,41.932107,-73.895545,1
714150,01-11-2019 12:16,3576020000000000.0,home,33.63,Topeka,39.1329,-95.7023,37da95e03c70950394f0d53ebb3a3d2c,38.500368,-95.200342,0
1048251,10-03-2020 14:11,213120000000000.0,home,14.66,Spearsville,32.955,-92.587,b6209a62e128a1c95a5a5544ffd11661,32.782321,-92.544417,0
658033,07-10-2019 05:28,3501940000000000.0,grocery_pos,65.86,Phoenix,33.8155,-112.1202,6ebbdc75944215320991fe91709665fd,33.531845,-112.045135,0
181461,05-04-2019 00:13,6528910000000000.0,gas_transport,24.84,Winter,45.8327,-91.0144,2e84c16bc65110c3628514fa88c0a9dd,45.50789,-91.274329,1
321358,03-06-2019 00:43,6011440000000000.0,grocery_net,48.75,De Witt,34.2853,-91.3336,48312dc82a2cb10027c7b46d8be933cc,33.885907,-91.251137,0
382072,24-06-2019 12:36,377655000000000.0,home,116.28,Powell,36.0435,-84.04,fc32959233e7152226f6ba3de082489f,35.449287,-84.47359,0
670437,13-10-2019 02:23,6569100000000000.0,grocery_pos,292.85,Aurora,39.6662,-104.835,4e1cef09047fe1370a09c9b66b0160d3,40.477301,-104.170544,1
953615,18-01-2020 07:37,6011890000000000.0,misc_net,1.04,Littleton,39.5994,-105.0044,65d7cfa27a235e37192dca677b462d56,39.677763,-104.172399,0
345985,11-06-2019 17:33,4708990000000000.0,personal_care,36.37,Cord,35.8184,-91.3375,cbfc01ed3906bce0aa3382061a928fe8,36.439744,-91.887327,0
399739,30-06-2019 22:37,4265780000000000.0,shopping_pos,886.59,Enola,35.2087,-92.2123,eade4fd549a1453bcaddaf151fd6b63d,35.018641,-93.097713,1
534130,17-08-2019 22:10,502013000000.0,misc_net,903.22,Garrattsville,42.6315,-75.1866,92c4e5d8c0b88b8b80dc314c943824df,41.821107,-74.613082,1
102080,28-02-2019 21:07,344710000000000.0,shopping_net,9.97,Sebring,27.4703,-81.4872,a4040b1f43d04d48187137f110673f55,28.238188,-80.98251,0
45318,27-01-2019 22:35,676234000000.0,misc_net,1043.38,Parker Dam,34.298,-114.156,1294d7a5dea211f63a6488b4957f127e,34.351802,-114.176826,1
419527,07-07-2019 22:45,30143500000000.0,shopping_net,4.7,Bridgeport,39.8016,-75.3478,023d8a4fdc51494a4b972328a5543776,39.231936,-75.073182,0
177146,02-04-2019 14:17,4003770000000000.0,kids_pets,100.91,Gregory,35.1791,-91.2594,9252dce50650363e1b59284195fd1aad,35.382055,-90.456082,0
837775,12-12-2019 23:23,3534720000000000.0,personal_care,18.47,Dongola,37.3712,-89.1349,c8c62ea6aff42fb8a31cfb3a4b299251,38.017945,-88.765492,1
358372,16-06-2019 12:11,4364010000000000.0,misc_pos,2.37,Reno,39.5483,-119.7957,5f3697a1e3c8399858314c80d524b54c,39.876357,-119.79933,0
399873,30-06-2019 23:20,4189810000000.0,kids_pets,21.72,Ragland,33.7367,-86.1619,3c1ceb273efeecade6ce0ed8e180e646,34.218179,-86.219157,0
48037,29-01-2019 02:01,38817500000000.0,gas_transport,10.57,Crouse,35.4359,-81.3385,8d5e7bec28443983664514e0a182cff6,36.187775,-82.087088,1
738186,11-11-2019 12:16,3528410000000000.0,home,236.23,Kingsport,36.4715,-82.4834,f596124f66c2bc5a9876034ae9935c7a,36.760712,-81.980474,0
980307,02-02-2020 13:57,3501510000000000.0,food_dining,4.82,Naples,26.1184,-81.7361,3f196bfa322e159bbd00e083dcfc341b,26.216413,-81.774737,0
589355,07-09-2019 13:31,2703190000000000.0,food_dining,16.59,Moravian Falls,36.0788,-81.1781,bcd1a4fa1d3a47fe85234e8e590b56c3,35.387583,-81.644243,0
244800,02-05-2019 23:49,4.35814e+18,personal_care,19.49,Oran,42.7012,-92.0762,11b20a5fc49732376ae2e5ecf0e40172,43.545203,-92.598216,1
974373,30-01-2020 01:56,6011920000000000.0,gas_transport,20.86,South Londonderry,43.1699,-72.8515,968d69ec241bd7552cb887798efd1d73,42.707262,-71.863123,1
987810,07-02-2020 04:30,3562260000000000.0,shopping_net,7.09,Saint Francis,37.6047,-85.4251,68c38d31ce0e3d0e51a475e246a5b6a6,37.90128,-85.269586,0
577870,01-09-2019 22:57,3537800000000000.0,shopping_pos,849.0,Monitor,47.4852,-120.4158,15e0eddd6130c4b35790bf4c471b22dc,47.987815,-121.192762,1
892276,24-12-2019 15:53,375083000000000.0,misc_pos,10.75,Georgetown,47.0999,-96.727,ca3045d0c037826cef716766996f263b,47.335238,-95.882413,0
482289,29-07-2019 22:35,6011380000000000.0,personal_care,22.82,Lagrange,41.6423,-104.1974,01d9b4826c4c538483af9518316bb7c1,40.705987,-103.204693,1
128753,11-03-2019 22:05,3598010000000000.0,shopping_net,22.19,Grimesland,35.558,-77.2566,9801a5334896a013ae1be10477c9b14c,35.925707,-78.112267,0
83798,18-02-2019 22:57,3540210000000000.0,grocery_pos,330.29,Summerfield,34.7437,-102.5064,c76cc78eff6615cf1b936125cd44ce0c,34.600795,-101.932871,1
782179,30-11-2019 18:10,4642260000000000.0,kids_pets,1.46,Thompson,38.9999,-109.615,b7404606b79f8a7438c27ac574dafbc8,38.176756,-109.828308,0
625742,23-09-2019 00:46,2610530000000000.0,shopping_pos,636.83,Old Hickory,36.2416,-86.6117,c6ec0b225c83f2fd41d95dbbe031fea6,36.986055,-86.244966,1
617790,19-09-2019 22:55,5154900000000000.0,personal_care,19.95,White Sulphur Springs,37.7827,-80.3129,e8b15618ff4608b81fcb36dfed46d5d3,37.489244,-79.581395,1
79589,17-02-2019 01:12,213126000000000.0,grocery_pos,327.19,Big Indian,42.074,-74.453,2f1d409bc4b157456a1e564cc46d08a8,41.122472,-75.145329,1
762842,23-11-2019 02:55,30044300000000.0,shopping_net,895.7,Fort Myers,26.4722,-81.8122,251826a406107fcf406f183c65844d9a,25.894072,-80.877549,1
570776,31-08-2019 01:35,6011650000000000.0,grocery_net,59.24,Rocky Mount,38.2911,-92.7059,58099c5ac747495fe1d07d2f8bc96c3d,38.74734,-92.840437,0
896566,25-12-2019 23:19,4879270000000000.0,shopping_net,883.36,Du Pont,31.0,-82.8555,6d26b86e4cbf364f388d200da389b3b5,30.922919,-82.884435,1
156587,24-03-2019 18:09,4026220000000.0,entertainment,59.07,Preston,41.5224,-71.9934,3bd9ede04b5c093143d5e5292940b670,41.657152,-72.595751,0
24805,15-01-2019 08:59,4789910000000000.0,grocery_pos,331.2,Moriches,40.8095,-72.8229,41a8ff921f841ee559fbced7b443a9a5,40.564488,-72.872646,1
493868,03-08-2019 19:03,377027000000000.0,home,17.8,Redford,37.3272,-91.0243,345a09960e31b534dcbc380dbe4c2b5b,36.696536,-91.481916,0
777040,29-11-2019 07:27,378279000000000.0,misc_pos,9.88,Eugene,44.0385,-123.0614,317b049cdfa3f468b8022017335d0fe9,44.436618,-123.054891,0
647740,02-10-2019 22:51,2235340000000000.0,shopping_pos,830.56,Waynesfield,40.6072,-83.9585,a8770af96d519739ee21c65dfce6dc37,40.665777,-83.550703,1
899697,26-12-2019 20:32,2288810000000000.0,entertainment,7.91,New York City,40.8265,-73.9383,378fed3012c548693a3d08a12c1a67d5,40.562001,-74.152745,0
1043711,09-03-2020 03:15,2383460000000000.0,gas_transport,55.41,Parsonsfield,43.745,-70.9092,a3ef1a01722db2cc0e4e64dc1f714902,42.920968,-71.095,0
983779,03-02-2020 23:43,4767270000000000.0,misc_net,924.21,Dublin,40.375,-75.2045,fe6dea8f5d37cef472e03071a64ab6b9,40.289812,-75.439961,1
424957,09-07-2019 18:36,180048000000000.0,shopping_net,37.89,Plainfield,40.6152,-74.415,666af8cfeb72116a50d2bee645a71ee5,40.158386,-74.501825,0
557705,25-08-2019 22:04,2288810000000000.0,health_fitness,134.77,New York City,40.8265,-73.9383,883497bb5b5fd30afff790382b4d7a1a,40.42822,-73.038372,0
665981,11-10-2019 06:05,6011680000000000.0,gas_transport,79.26,Slayden,36.2835,-87.4581,738028d727605fe13366be7afa03636a,36.595923,-87.122513,0
936533,07-01-2020 18:22,3583640000000000.0,personal_care,91.66,Philadelphia,40.0369,-75.0664,b7a683c814437b29c4322a6c077313df,40.279787,-75.45689,0
761430,22-11-2019 10:35,4951650000000000.0,misc_net,1.14,Logan,37.9943,-88.9417,cc0d9a8070ab1194181857be53dedcc7,38.463309,-89.082068,0
67222,09-02-2019 19:52,3517530000000000.0,misc_pos,94.97,Bonfield,41.1573,-88.0619,5b06bece171d83c30ea9e5b39497f444,40.778636,-87.573393,0
654827,06-10-2019 05:02,3576430000000000.0,grocery_pos,323.89,Phoenix,33.5623,-112.0559,e3aa365e6886ed180584de4bdfd24acb,33.267296,-111.112268,1
955104,18-01-2020 23:29,6012000000000000.0,misc_net,850.47,Harrington Park,40.9918,-73.98,5881c0263e9e04a24bdd9fa15ad22840,41.15105,-73.952148,1
827525,09-12-2019 22:45,6011630000000000.0,shopping_net,981.16,Bethel Springs,35.2289,-88.644,5a50280f7b1ffca202f443bd5ede336d,34.322171,-87.710813,1
3101,02-01-2019 16:28,4800400000000000.0,kids_pets,146.6,Howells,41.6964,-96.9858,ee46342583f2f25dd78f29b82412ee96,42.486036,-96.461106,0
647955,03-10-2019 01:45,2235340000000000.0,gas_transport,18.69,Waynesfield,40.6072,-83.9585,92d06dcd3c2514e2ce9312280bb5f980,39.717745,-83.283581,1
380950,24-06-2019 04:10,630485000000.0,gas_transport,72.1,Helm,36.4992,-120.0936,d32524772245bf06cf5db1e36e8155b6,36.796724,-119.917072,0
1046820,10-03-2020 01:11,3589290000000000.0,shopping_net,991.51,Spencer,43.7557,-97.5936,00274c0cef970be83a2f2b75da3b8a10,43.179504,-97.207922,1
644462,30-09-2019 23:05,6011540000000000.0,home,38.88,Basye,38.8089,-78.7776,a1b3a62373c4b021a5c4b619fa961325,38.674198,-79.762113,0
323432,03-06-2019 15:21,213127000000000.0,kids_pets,87.86,Laredo,27.5155,-99.4986,a5158541ca81e267f12034f6833aebff,26.579318,-99.298861,0
135146,15-03-2019 16:22,6011550000000000.0,grocery_pos,311.53,Lonetree,41.0552,-110.1603,f9140f2f1900ca7e35b604bba8a3d63b,41.268673,-110.092197,1
639701,29-09-2019 12:48,4561550000000.0,food_dining,11.91,Moriarty,34.9889,-106.0609,05a84d6c8736d10d3fc5fa48300fce33,34.521374,-106.607316,0
1040701,08-03-2020 00:13,4561370000000000.0,misc_net,802.05,Clifton,34.9906,-81.8327,c5aa6d3e364cb8a06fbcff4084c2bc54,35.514419,-82.398842,1
949804,15-01-2020 18:01,4.65318e+18,shopping_net,2.53,Glade Spring,36.7779,-81.7676,83d5c7d1114c81964cd58950f4062507,35.785091,-81.577407,0
524158,13-08-2019 22:26,30428200000000.0,shopping_net,1090.18,Schaefferstown,40.3087,-76.2963,a986eb77f1dbb622af04968e60cd5542,39.905211,-75.508247,1
903853,27-12-2019 23:10,6511350000000000.0,shopping_pos,780.81,Ruth,39.3426,-114.8859,0e83606e488b23b9deeea66e50a73a22,39.605795,-115.073388,1
651450,04-10-2019 22:50,343464000000000.0,personal_care,20.94,Bailey,35.8072,-78.0892,ed0ca0757915920969b697c865fc9d0d,35.434996,-77.176667,1
557703,25-08-2019 22:03,4128030000000000.0,shopping_net,1170.79,Mount Perry,39.8788,-82.188,e72bd8d705e7f6d883734eec6fe8735a,40.695312,-81.220764,1
397314,30-06-2019 10:22,6011920000000000.0,gas_transport,38.52,South Londonderry,43.1699,-72.8515,24f16b6471cedda23af0787e8b881109,43.32223,-72.606229,0
487315,01-08-2019 09:45,344342000000000.0,gas_transport,59.79,Darien,31.3826,-81.4312,5f75553b64de98c37aa3409be0d926cc,30.71541,-82.185442,0
948451,14-01-2020 15:12,3565420000000000.0,kids_pets,56.52,Carlisle,38.9763,-87.3667,eeb982b9fad09499a6d642c9592aa037,39.872778,-87.554681,0
904179,28-12-2019 00:51,4048510000000000.0,misc_net,772.39,Fullerton,41.366,-98.0054,8afd66a8864e9a1f3595f6937b238149,40.745923,-97.348637,1
